[{"name":"Mahalo","category_code":"web","number_of_employees":40,"founded_year":2007,"deadpooled_year":null,"description":"Life long learning content","total_money_raised":21000000,"offices":[{"description":"","address1":"3525 Eastham Dr.","address2":"","zip_code":"90232","city":"Culver City","state_code":"CA","country_code":"USA","latitude":34.017606,"longitude":-118.487267}],"country":"USA","state":"CA","city":"Culver City","latitude":34.017606,"longitude":-118.487267},{"name":"Livestream","category_code":"games_video","number_of_employees":120,"founded_year":2007,"deadpooled_year":null,"description":"Live streaming platform and website","total_money_raised":14700000,"offices":[{"description":"Livestream HQ","address1":"111 8th Avenue, #1509","address2":"","zip_code":"10011","city":"New York","state_code":"NY","country_code":"USA","latitude":40.726155,"longitude":-73.995625}],"country":"USA","state":"NY","city":"New York","latitude":40.726155,"longitude":-73.995625},{"name":"Ustream","category_code":"games_video","number_of_employees":250,"founded_year":2007,"deadpooled_year":null,"description":"Live Social Video Community","total_money_raised":60100000,"offices":[{"description":"San Francisco Office","address1":"410 Townsend","address2":"Suite 400","zip_code":"94107","city":"San Francisco","state_code":"CA","country_code":"USA","latitude":37.392936,"longitude":-122.07948},{"description":"Los Angeles Office","address1":"6725 W Sunset Blvd","address2":"Suite 320","zip_code":"90028","city":"Los Angeles","state_code":"CA","country_code":"USA","latitude":null,"longitude":null},{"description":"Budapest Office","address1":"","address2":"","zip_code":"","city":"Budapest","state_code":null,"country_code":"HUN","latitude":null,"longitude":null}],"country":"USA","state":"CA","city":"San Francisco","latitude":37.392936,"longitude":-122.07948},{"name":"SodaHead","category_code":"web","number_of_employees":25,"founded_year":2007,"deadpooled_year":null,"description":"Online Community and Discussion","total_money_raised":12700000,"offices":[{"description":"","address1":"16161 Ventura Blvd.","address2":"Suite C PMB 461","zip_code":"91436","city":"Encino","state_code":"CA","country_code":"USA","latitude":37.269175,"longitude":-119.306607}],"country":"USA","state":"CA","city":"Encino","latitude":37.269175,"longitude":-119.306607},{"name":"GoingOn","category_code":"software","number_of_employees":40,"founded_year":2008,"deadpooled_year":null,"description":"Private Academic Networks","total_money_raised":8500000,"offices":[{"description":"GoingOn Networks, Inc.","address1":"450 Sansome Street","address2":"12th Floor","zip_code":"94111","city":"San Francisco","state_code":"CA","country_code":"USA","latitude":37.782263,"longitude":-122.392142}],"country":"USA","state":"CA","city":"San Francisco","latitude":37.782263,"longitude":-122.392142},{"name":"Dropbox","category_code":"software","number_of_employees":350,"founded_year":2007,"deadpooled_year":null,"description":"Always have your stuff, wherever you are","total_money_raised":257000000,"offices":[{"description":"Headquarters","address1":"","address2":"185 Berry St 4th Floor","zip_code":"94107","city":"San Francisco","state_code":"CA","country_code":"USA","latitude":37.7909427,"longitude":-122.4084994},{"description":"EMEA HQ","address1":"Fitzwilliam Hall","address2":"","zip_code":"","city":"Dublin","state_code":null,"country_code":"IRL","latitude":null,"longitude":null}],"country":"USA","state":"CA","city":"San Francisco","latitude":37.7909427,"longitude":-122.4084994},{"name":"Yola","category_code":"web","number_of_employees":70,"founded_year":2007,"deadpooled_year":null,"description":"Free Websites","total_money_raised":25000000,"offices":[{"description":"Yola San Francisco","address1":"201 Mission Street","address2":"Suite 2250","zip_code":"94105","city":"San Francisco","state_code":"CA","country_code":"USA","latitude":37.7911148,"longitude":-122.3954751},{"description":"Cape Town Office","address1":"35 Hope Street","address2":"3rd Floor","zip_code":"8000","city":"Cape Town","state_code":null,"country_code":"ZAF","latitude":null,"longitude":null}],"country":"USA","state":"CA","city":"San Francisco","latitude":37.7911148,"longitude":-122.3954751},{"name":"Docstoc","category_code":"web","number_of_employees":40,"founded_year":2007,"deadpooled_year":null,"description":"The Online Resource for Small Businesses","total_money_raised":4000000,"offices":[{"description":"","address1":"409 S Santa Monica Blvd","address2":"Suite 2A","zip_code":"90401","city":"Santa Monica","state_code":"CA","country_code":"USA","latitude":34.018275,"longitude":-118.495025}],"country":"USA","state":"CA","city":"Santa Monica","latitude":34.018275,"longitude":-118.495025},{"name":"Crunchyroll","category_code":"games_video","number_of_employees":50,"founded_year":2008,"deadpooled_year":null,"description":"Digital Entertainment and Media Platform","total_money_raised":4800000,"offices":[{"description":"","address1":"","address2":"","zip_code":"94105","city":"San Francisco","state_code":"CA","country_code":"USA","latitude":37.781265,"longitude":-122.393229}],"country":"USA","state":"CA","city":"San Francisco","latitude":37.781265,"longitude":-122.393229},{"name":"Ooyala","category_code":"analytics","number_of_employees":300,"founded_year":2007,"deadpooled_year":null,"description":"Video streaming, analytics, monetization","total_money_raised":122000000,"offices":[{"description":"Corporate Headquarters","address1":"800 West El Camino Real","address2":"Suite 350","zip_code":"94040","city":"Mountain View","state_code":"CA","country_code":"USA","latitude":37.386665,"longitude":-122.084171},{"description":"New York","address1":"156 5th Avenue","address2":"","zip_code":"10011","city":"New York","state_code":"NY","country_code":"USA","latitude":null,"longitude":null},{"description":"London","address1":"85 Tottenham Court Road","address2":"","zip_code":"W1T 4TQ","city":"London","state_code":null,"country_code":"GBR","latitude":null,"longitude":null},{"description":"Guadalajara","address1":"Avenida Americas 1600, Piso 7. Colonia Country Club.","address2":"","zip_code":"44610","city":"Guadalajara","state_code":null,"country_code":"MEX","latitude":null,"longitude":null}],"country":"USA","state":"CA","city":"Mountain View","latitude":37.386665,"longitude":-122.084171},{"name":"hulu","category_code":"games_video","number_of_employees":153,"founded_year":2007,"deadpooled_year":null,"description":"Online Video Provider","total_money_raised":100000000,"offices":[{"description":null,"address1":"12312 W. Olympic Blvd.","address2":null,"zip_code":"90064","city":"Los Angeles","state_code":"CA","country_code":"USA","latitude":34.031276,"longitude":-118.456806}],"country":"USA","state":"CA","city":"Los Angeles","latitude":34.031276,"longitude":-118.456806},{"name":"GENWI","category_code":"mobile","number_of_employees":25,"founded_year":2010,"deadpooled_year":null,"description":"Cloud Publishing for Mobile","total_money_raised":7100000,"offices":[{"description":"","address1":"4966 El Camino Real","address2":"Suite 200","zip_code":"94022","city":"Los Altos","state_code":"CA","country_code":"USA","latitude":33.8171,"longitude":-111.9035}],"country":"USA","state":"CA","city":"Los Altos","latitude":33.8171,"longitude":-111.9035},{"name":"Fixya","category_code":"web","number_of_employees":30,"founded_year":2013,"deadpooled_year":null,"description":"Tech Support Community","total_money_raised":8000000,"offices":[{"description":"","address1":"One Franklin Parkway","address2":"Building 910, Suite 110","zip_code":"94401","city":"San Mateo","state_code":"CA","country_code":"USA","latitude":37.566879,"longitude":-122.323895}],"country":"USA","state":"CA","city":"San Mateo","latitude":37.566879,"longitude":-122.323895},{"name":"Polyvore","category_code":"web","number_of_employees":73,"founded_year":2007,"deadpooled_year":null,"description":"Social Shopping Platform","total_money_raised":22100000,"offices":[{"description":"","address1":"","address2":"","zip_code":"","city":"Mountain View","state_code":"CA","country_code":"USA","latitude":37.386175,"longitude":-122.083487}],"country":"USA","state":"CA","city":"Mountain View","latitude":37.386175,"longitude":-122.083487},{"name":"uTest","category_code":"software","number_of_employees":120,"founded_year":2007,"deadpooled_year":null,"description":"In-the-wild software testing","total_money_raised":37800000,"offices":[{"description":"Headquarters","address1":"100 Pennsylvania Ave","address2":"","zip_code":"01710","city":"Framingham","state_code":"MA","country_code":"USA","latitude":42.288291,"longitude":-71.52679},{"description":"West Coast Office","address1":"119 B Street","address2":"","zip_code":"94401","city":"San Mateo","state_code":"CA","country_code":"USA","latitude":null,"longitude":null}],"country":"USA","state":"MA","city":"Framingham","latitude":42.288291,"longitude":-71.52679},{"name":"Disqus","category_code":"web","number_of_employees":43,"founded_year":2007,"deadpooled_year":null,"description":"The Web's Community of Communities","total_money_raised":10500000,"offices":[{"description":"","address1":"301 Howard","address2":"3rd Floor","zip_code":"94105","city":"San Francisco","state_code":"CA","country_code":"USA","latitude":37.786906,"longitude":-122.397672}],"country":"USA","state":"CA","city":"San Francisco","latitude":37.786906,"longitude":-122.397672},{"name":"RepairPal","category_code":"web","number_of_employees":25,"founded_year":2007,"deadpooled_year":null,"description":"Online Auto Repair Estimates","total_money_raised":21300000,"offices":[{"description":"","address1":"6005 Shellmound St","address2":"Suite 200","zip_code":"94608","city":"Emeryville","state_code":"CA","country_code":"USA","latitude":37.838225,"longitude":-122.296411}],"country":"USA","state":"CA","city":"Emeryville","latitude":37.838225,"longitude":-122.296411},{"name":"Uversity","category_code":"social","number_of_employees":30,"founded_year":2007,"deadpooled_year":null,"description":"Social Educational Tools","total_money_raised":10200000,"offices":[{"description":null,"address1":null,"address2":null,"zip_code":null,"city":null,"state_code":null,"country_code":"USA","latitude":37.09024,"longitude":-95.712891},{"description":null,"address1":null,"address2":null,"zip_code":null,"city":"San Francisco","state_code":"CA","country_code":"USA","latitude":37.7749295,"longitude":-122.4194155}],"country":"USA","state":null,"city":null,"latitude":37.09024,"longitude":-95.712891},{"name":"Goodreads","category_code":"web","number_of_employees":70,"founded_year":2007,"deadpooled_year":null,"description":"Community for book lovers","total_money_raised":2750000,"offices":[{"description":"Goodreads SM","address1":"1444 9th St, Suite B","address2":"","zip_code":"60401","city":"Santa Monica","state_code":"CA","country_code":"USA","latitude":34.01052,"longitude":-118.495981},{"description":"Goodreads SF","address1":"188 Spear Street","address2":"Third Floor","zip_code":"94105","city":"San Francisco","state_code":"CA","country_code":"USA","latitude":null,"longitude":null}],"country":"USA","state":"CA","city":"Santa Monica","latitude":34.01052,"longitude":-118.495981},{"name":"Shoeboxed","category_code":"web","number_of_employees":70,"founded_year":2007,"deadpooled_year":null,"description":"Painless Receipt & Expense Management","total_money_raised":2510000,"offices":[{"description":"Headquarters","address1":"112 Broadway St.","address2":"Suite B","zip_code":"27701","city":"Durham","state_code":"NC","country_code":"USA","latitude":35.996157,"longitude":-78.902115},{"description":"Mailing Address","address1":"P.O. Box 1411","address2":"","zip_code":"27702","city":"Durham","state_code":"NC","country_code":"USA","latitude":35.9939,"longitude":-78.8986},{"description":"Shoeboxed Australia","address1":"101\/65 Hume St","address2":"","zip_code":"2065","city":"Crows Nest","state_code":null,"country_code":"AUS","latitude":null,"longitude":null}],"country":"USA","state":"NC","city":"Durham","latitude":35.996157,"longitude":-78.902115},{"name":"clipsync","category_code":"web","number_of_employees":28,"founded_year":2007,"deadpooled_year":null,"description":"Social TV","total_money_raised":1510000,"offices":[{"description":"","address1":"Pier 33 South Embarcadero","address2":"Suite 201","zip_code":"94111","city":"San Francisco","state_code":"CA","country_code":"USA","latitude":37.2906027,"longitude":-121.9317853}],"country":"USA","state":"CA","city":"San Francisco","latitude":37.2906027,"longitude":-121.9317853},{"name":"Zynga","category_code":"games_video","number_of_employees":115,"founded_year":2007,"deadpooled_year":null,"description":"Network of gaming applications","total_money_raised":860000000,"offices":[{"description":"SF HQ","address1":"365 Vermont St.","address2":"","zip_code":"94103","city":"San Francisco","state_code":"CA","country_code":"USA","latitude":37.765158,"longitude":-122.404234},{"description":"","address1":"","address2":"","zip_code":"","city":"","state_code":null,"country_code":"IND","latitude":null,"longitude":null},{"description":"","address1":"","address2":"","zip_code":"","city":"Baltimore","state_code":"MD","country_code":"USA","latitude":null,"longitude":null},{"description":"","address1":"","address2":"","zip_code":"","city":"Los Angeles","state_code":"CA","country_code":"USA","latitude":null,"longitude":null}],"country":"USA","state":"CA","city":"San Francisco","latitude":37.765158,"longitude":-122.404234},{"name":"Cellware","category_code":"web","number_of_employees":25,"founded_year":2007,"deadpooled_year":null,"description":null,"total_money_raised":0,"offices":[{"description":null,"address1":"","address2":"","zip_code":"33435","city":"","state_code":"FL","country_code":"USA","latitude":26.524058,"longitude":-80.064158}],"country":"USA","state":"FL","city":"","latitude":26.524058,"longitude":-80.064158},{"name":"Jirbo","category_code":"mobile","number_of_employees":23,"founded_year":2008,"deadpooled_year":null,"description":"Mobile Gaming and Advertising","total_money_raised":0,"offices":[{"description":"World Headquarters","address1":"149 South Barrington Ave.","address2":"#710","zip_code":"90049","city":"Los Angeles","state_code":"CA","country_code":"USA","latitude":34.064629,"longitude":-118.469316}],"country":"USA","state":"CA","city":"Los Angeles","latitude":34.064629,"longitude":-118.469316},{"name":"Social Gaming Network","category_code":"games_video","number_of_employees":100,"founded_year":2011,"deadpooled_year":null,"description":"social gaming platform","total_money_raised":17100000,"offices":[{"description":"HQ Los Angeles","address1":"9570 W. Pico Blvd 3rd Floor","address2":"","zip_code":"90035","city":"Los Angeles","state_code":"CA","country_code":"USA","latitude":37.446823,"longitude":-122.161523},{"description":"","address1":"9606 S. Santa Monica Blvd","address2":"2nd Floor","zip_code":"90210","city":"Beverly Hills","state_code":"CA","country_code":"USA","latitude":34.0698494,"longitude":-118.4054182}],"country":"USA","state":"CA","city":"Los Angeles","latitude":37.446823,"longitude":-122.161523},{"name":"Avot Media","category_code":"mobile","number_of_employees":20,"founded_year":2007,"deadpooled_year":null,"description":"","total_money_raised":0,"offices":[{"description":null,"address1":"1159 Sonora Ct","address2":"","zip_code":"94086","city":"Sunnyvale","state_code":"CA","country_code":"USA","latitude":37.371861,"longitude":-121.999306}],"country":"USA","state":"CA","city":"Sunnyvale","latitude":37.371861,"longitude":-121.999306},{"name":"Clickpass","category_code":"web","number_of_employees":90,"founded_year":2007,"deadpooled_year":null,"description":null,"total_money_raised":20,"offices":[{"description":null,"address1":"","address2":"","zip_code":"","city":"San Francisco","state_code":"CA","country_code":"USA","latitude":37.775196,"longitude":-122.419204}],"country":"USA","state":"CA","city":"San Francisco","latitude":37.775196,"longitude":-122.419204},{"name":"Next New Networks","category_code":"web","number_of_employees":121,"founded_year":2007,"deadpooled_year":null,"description":"Micro television network platform","total_money_raised":27100000,"offices":[{"description":"","address1":"22 W 21st St","address2":"10th Floor","zip_code":"10010","city":"New York","state_code":"NY","country_code":"USA","latitude":40.743808,"longitude":-73.983626}],"country":"USA","state":"NY","city":"New York","latitude":40.743808,"longitude":-73.983626},{"name":"Zuora","category_code":"software","number_of_employees":250,"founded_year":2007,"deadpooled_year":null,"description":"Subscription billing and management","total_money_raised":128000000,"offices":[{"description":"","address1":"1051 East Hillsdale Boulevard","address2":"Suite 600","zip_code":"94404","city":"Foster City","state_code":"CA","country_code":"USA","latitude":37.5596277,"longitude":-122.2709868}],"country":"USA","state":"CA","city":"Foster City","latitude":37.5596277,"longitude":-122.2709868},{"name":"ShareThis","category_code":"social","number_of_employees":80,"founded_year":2007,"deadpooled_year":null,"description":"sharing network, social influence","total_money_raised":82900000,"offices":[{"description":"","address1":"4009 Miranda Ave.","address2":"Suite 200","zip_code":"94304-1227","city":"Palo Alto","state_code":"CA","country_code":"USA","latitude":37.4203945,"longitude":-122.0872274}],"country":"USA","state":"CA","city":"Palo Alto","latitude":37.4203945,"longitude":-122.0872274},{"name":"Mytopia","category_code":"games_video","number_of_employees":29,"founded_year":2007,"deadpooled_year":null,"description":null,"total_money_raised":3500000,"offices":[{"description":"","address1":"","address2":"","zip_code":"94301","city":"Palo Alto","state_code":"CA","country_code":"USA","latitude":34.007967,"longitude":-118.489681}],"country":"USA","state":"CA","city":"Palo Alto","latitude":34.007967,"longitude":-118.489681},{"name":"Perfect Market","category_code":"software","number_of_employees":60,"founded_year":2007,"deadpooled_year":null,"description":"Digital Publishing Software & Services","total_money_raised":30600000,"offices":[{"description":"Headquarters","address1":"130 W. Union Street","address2":"","zip_code":"91103","city":"Pasadena","state_code":"CA","country_code":"USA","latitude":34.146436,"longitude":-118.153136},{"description":"Sales Office","address1":"44 West 28th Street","address2":"","zip_code":"10001","city":"New York","state_code":"NY","country_code":"USA","latitude":null,"longitude":null}],"country":"USA","state":"CA","city":"Pasadena","latitude":34.146436,"longitude":-118.153136},{"name":"Glassdoor","category_code":"web","number_of_employees":180,"founded_year":2007,"deadpooled_year":null,"description":"Jobs and Career Community","total_money_raised":91500000,"offices":[{"description":"","address1":"1 Harbor Drive","address2":"Suite 300","zip_code":"94965","city":"Sausalito","state_code":"CA","country_code":"USA","latitude":37.868002,"longitude":-122.500111}],"country":"USA","state":"CA","city":"Sausalito","latitude":37.868002,"longitude":-122.500111},{"name":"HRSnap! Corporation","category_code":"software","number_of_employees":20,"founded_year":2007,"deadpooled_year":null,"description":null,"total_money_raised":0,"offices":[{"description":null,"address1":"848 N. Rainbow Blvd. #2398","address2":"","zip_code":"89107","city":"Las Vegas","state_code":"NV","country_code":"USA","latitude":36.180757,"longitude":-115.242203}],"country":"USA","state":"NV","city":"Las Vegas","latitude":36.180757,"longitude":-115.242203},{"name":"Intridea","category_code":"web","number_of_employees":37,"founded_year":2007,"deadpooled_year":null,"description":"Web and Mobile Development","total_money_raised":0,"offices":[{"description":"","address1":"1020 16th Street NW","address2":"7th Floor","zip_code":"20006","city":"Washington, DC","state_code":"DC","country_code":"USA","latitude":38.901279,"longitude":-77.043194}],"country":"USA","state":"DC","city":"Washington, DC","latitude":38.901279,"longitude":-77.043194},{"name":"Mojiva","category_code":"mobile","number_of_employees":105,"founded_year":2008,"deadpooled_year":null,"description":"Mobile Advertising","total_money_raised":45800000,"offices":[{"description":"Headquaters","address1":"136 Baxter St","address2":"","zip_code":"10013","city":"New York","state_code":"NY","country_code":"USA","latitude":40.7185614,"longitude":-73.998662},{"description":"","address1":"","address2":"","zip_code":"","city":"San Francisco","state_code":"CA","country_code":"USA","latitude":null,"longitude":null},{"description":"","address1":"","address2":"","zip_code":"","city":"London","state_code":null,"country_code":"GBR","latitude":null,"longitude":null},{"description":"","address1":"","address2":"","zip_code":"","city":"Seattle","state_code":"WA","country_code":"USA","latitude":null,"longitude":null},{"description":"","address1":"","address2":"","zip_code":"","city":"Los Angeles","state_code":"CA","country_code":"USA","latitude":null,"longitude":null},{"description":"","address1":"","address2":"","zip_code":"","city":"Chicago","state_code":"IL","country_code":"USA","latitude":null,"longitude":null}],"country":"USA","state":"NY","city":"New York","latitude":40.7185614,"longitude":-73.998662},{"name":"YUPPTV","category_code":"games_video","number_of_employees":70,"founded_year":2008,"deadpooled_year":null,"description":"Watch your favorite live tv on internet,","total_money_raised":0,"offices":[{"description":"OTT Video Solutions","address1":"710 Ashepoint Way","address2":"","zip_code":"30004","city":"Alpharetta","state_code":"GA","country_code":"USA","latitude":17.415429,"longitude":78.434422}],"country":"USA","state":"GA","city":"Alpharetta","latitude":17.415429,"longitude":78.434422},{"name":"GitHub","category_code":"software","number_of_employees":106,"founded_year":2008,"deadpooled_year":null,"description":"Social Coding","total_money_raised":100000000,"offices":[{"description":"","address1":"275 Brannan St.","address2":"","zip_code":"94107","city":"San Francisco","state_code":"CA","country_code":"USA","latitude":37.775196,"longitude":-122.419204}],"country":"USA","state":"CA","city":"San Francisco","latitude":37.775196,"longitude":-122.419204},{"name":"Mad Mimi","category_code":"web","number_of_employees":35,"founded_year":2008,"deadpooled_year":null,"description":"Email Marketing","total_money_raised":110,"offices":[{"description":"","address1":"172 Fifth Avenue","address2":"Suite 131","zip_code":"11215","city":"Brooklyn","state_code":"NY","country_code":"USA","latitude":40.66509,"longitude":-73.980306}],"country":"USA","state":"NY","city":"Brooklyn","latitude":40.66509,"longitude":-73.980306},{"name":"TigerLogic","category_code":"social","number_of_employees":120,"founded_year":2008,"deadpooled_year":null,"description":"Social Mobile Platforms","total_money_raised":0,"offices":[{"description":"TigerLogic Corporation","address1":"25A Technology Dr.","address2":"Suite 100","zip_code":"CA 92618,","city":"Irvine,","state_code":null,"country_code":"USA","latitude":33.651624,"longitude":-117.739227}],"country":"USA","state":null,"city":"Irvine,","latitude":33.651624,"longitude":-117.739227},{"name":"MUBI","category_code":"games_video","number_of_employees":20,"founded_year":2007,"deadpooled_year":null,"description":"streaming video on demand","total_money_raised":8250000,"offices":[{"description":"","address1":"668 High Street","address2":"","zip_code":"94301","city":"Palo Alto","state_code":"CA","country_code":"USA","latitude":37.44236,"longitude":-122.161025},{"description":"","address1":"1 Newburgh Street","address2":"Soho","zip_code":"W1F 7RB","city":"London","state_code":null,"country_code":"GBR","latitude":null,"longitude":null}],"country":"USA","state":"CA","city":"Palo Alto","latitude":37.44236,"longitude":-122.161025},{"name":"UserVoice","category_code":"software","number_of_employees":22,"founded_year":2008,"deadpooled_year":null,"description":"Online feedback and support software","total_money_raised":1800000,"offices":[{"description":"Headquarters","address1":"121 Second Street","address2":"Floor 4","zip_code":"94105","city":"San Francisco","state_code":"CA","country_code":"USA","latitude":36.9751032,"longitude":-122.0253784},{"description":"NC Office","address1":"12 1\/2 East Hargett St","address2":"","zip_code":"27601","city":"Raleigh","state_code":"NC","country_code":"USA","latitude":null,"longitude":null}],"country":"USA","state":"CA","city":"San Francisco","latitude":36.9751032,"longitude":-122.0253784},{"name":"Modern Feed","category_code":"games_video","number_of_employees":123,"founded_year":2007,"deadpooled_year":null,"description":null,"total_money_raised":3000000,"offices":[{"description":null,"address1":"818 N. La Brea Ave.","address2":"","zip_code":"90038","city":"Los Angeles","state_code":"CA","country_code":"USA","latitude":34.085749,"longitude":-118.343791}],"country":"USA","state":"CA","city":"Los Angeles","latitude":34.085749,"longitude":-118.343791},{"name":"PurpleTrail","category_code":"web","number_of_employees":35,"founded_year":2007,"deadpooled_year":null,"description":"","total_money_raised":0,"offices":[{"description":"Corporate Headquarters","address1":"15400 SE 30th Pl","address2":"Suite #105","zip_code":"98004","city":"Bellevue","state_code":"WA","country_code":"USA","latitude":47.584224,"longitude":-122.19292}],"country":"USA","state":"WA","city":"Bellevue","latitude":47.584224,"longitude":-122.19292},{"name":"Serious Business","category_code":"games_video","number_of_employees":22,"founded_year":2008,"deadpooled_year":null,"description":"Social Game Development Studio","total_money_raised":4000000,"offices":[{"description":"","address1":"580 Market Street","address2":"#600","zip_code":"94104","city":"San Francisco","state_code":"CA","country_code":"USA","latitude":37.7893215,"longitude":-122.4013624}],"country":"USA","state":"CA","city":"San Francisco","latitude":37.7893215,"longitude":-122.4013624},{"name":"New Relic","category_code":"software","number_of_employees":63,"founded_year":2008,"deadpooled_year":null,"description":"SaaS Application Performance Management","total_money_raised":175000000,"offices":[{"description":"","address1":"","address2":"","zip_code":"","city":"San Francisco","state_code":"CA","country_code":"USA","latitude":37.269175,"longitude":-119.306607}],"country":"USA","state":"CA","city":"San Francisco","latitude":37.269175,"longitude":-119.306607},{"name":"Zinch","category_code":"web","number_of_employees":80,"founded_year":2007,"deadpooled_year":null,"description":"Connecting students with opportunities","total_money_raised":5000000,"offices":[{"description":"San Francisco, CA","address1":"600 Townsend St, East Building","address2":"4th Floor","zip_code":"94103","city":"San Francisco","state_code":"CA","country_code":"USA","latitude":40.234451,"longitude":-111.658656},{"description":"Orem, UT","address1":"1459 N 1200 W","address2":"","zip_code":"84057","city":"Orem","state_code":"UT","country_code":"USA","latitude":null,"longitude":null},{"description":"Bejing, China Office","address1":"Room 5302, Ideal Plaza, No 111 Zhichun Road","address2":"Haidian District","zip_code":"100086","city":"Beijing","state_code":null,"country_code":"CHN","latitude":null,"longitude":null}],"country":"USA","state":"CA","city":"San Francisco","latitude":40.234451,"longitude":-111.658656},{"name":"Friend2Friend","category_code":"software","number_of_employees":20,"founded_year":2007,"deadpooled_year":null,"description":"social  tools\/software for brands","total_money_raised":0,"offices":[{"description":"","address1":"425 Sherman Avenue","address2":"","zip_code":"94306","city":"Palo Alto","state_code":"CA","country_code":"USA","latitude":37.445739,"longitude":-122.161284},{"description":"European Office","address1":"Rossell\u00c3\u00b3, 25 Baixos 2a","address2":"","zip_code":"08029","city":"Barcelona","state_code":null,"country_code":"ESP","latitude":null,"longitude":null},{"description":"New York Office","address1":"41 East 11th Street","address2":"","zip_code":"10003","city":"New York","state_code":"NY","country_code":"USA","latitude":null,"longitude":null}],"country":"USA","state":"CA","city":"Palo Alto","latitude":37.445739,"longitude":-122.161284},{"name":"Sometrics","category_code":"games_video","number_of_employees":35,"founded_year":2007,"deadpooled_year":null,"description":"In-game Payment Solutions","total_money_raised":5550000,"offices":[{"description":"","address1":"","address2":"","zip_code":"90245","city":"El Segundo","state_code":"CA","country_code":"USA","latitude":34.048857,"longitude":-118.251343}],"country":"USA","state":"CA","city":"El Segundo","latitude":34.048857,"longitude":-118.251343},{"name":"Transpera","category_code":"mobile","number_of_employees":20,"founded_year":2007,"deadpooled_year":null,"description":"mobile video advertising","total_money_raised":19500000,"offices":[{"description":"","address1":"785 Market St.","address2":"Suite 750","zip_code":"94103","city":"San Francisco","state_code":"CA","country_code":"USA","latitude":37.785792,"longitude":-122.405081}],"country":"USA","state":"CA","city":"San Francisco","latitude":37.785792,"longitude":-122.405081},{"name":"Spoonflower","category_code":"web","number_of_employees":35,"founded_year":2008,"deadpooled_year":null,"description":"Personal Fabric Printing","total_money_raised":0,"offices":[{"description":"","address1":"2810 Meridian Pkwy","address2":"Suite 130","zip_code":"27713","city":"Durham","state_code":"NC","country_code":"USA","latitude":36.0966,"longitude":-79.266246}],"country":"USA","state":"NC","city":"Durham","latitude":36.0966,"longitude":-79.266246},{"name":"GreenNote","category_code":"web","number_of_employees":65,"founded_year":2007,"deadpooled_year":null,"description":"Student Lending Site","total_money_raised":4200000,"offices":[{"description":"","address1":"","address2":"","zip_code":"","city":"Mather","state_code":"CA","country_code":"USA","latitude":37.492685,"longitude":-122.227765}],"country":"USA","state":"CA","city":"Mather","latitude":37.492685,"longitude":-122.227765},{"name":"Crowd Science","category_code":"web","number_of_employees":25,"founded_year":2007,"deadpooled_year":null,"description":"Online Market Research","total_money_raised":2000000,"offices":[{"description":"San Jose Headquarters","address1":"1735 Technology Drive","address2":"Suite 780","zip_code":"95110","city":"San Jose","state_code":"CA","country_code":"USA","latitude":37.419041,"longitude":-122.087471},{"description":"Toronto Office","address1":"40 Eglinton Ave East","address2":"Suite 200","zip_code":"M4P 3A2","city":"Toronto","state_code":null,"country_code":"CAN","latitude":43.712309,"longitude":-79.399538}],"country":"USA","state":"CA","city":"San Jose","latitude":37.419041,"longitude":-122.087471},{"name":"BrandYourself","category_code":"web","number_of_employees":22,"founded_year":2009,"deadpooled_year":null,"description":"Take Control of Your Own Search Results","total_money_raised":1500000,"offices":[{"description":"","address1":"120 Walker St","address2":"FL 2","zip_code":"10013","city":"New York","state_code":"NY","country_code":"USA","latitude":42.275263,"longitude":-71.24762}],"country":"USA","state":"NY","city":"New York","latitude":42.275263,"longitude":-71.24762},{"name":"Openfilm","category_code":"games_video","number_of_employees":35,"founded_year":2007,"deadpooled_year":null,"description":"Where creativity meets opportunity","total_money_raised":0,"offices":[{"description":"Headquarters","address1":"1450 S Miami Ave","address2":"","zip_code":"33130","city":"Miami","state_code":"FL","country_code":"USA","latitude":25.887462,"longitude":-80.166155}],"country":"USA","state":"FL","city":"Miami","latitude":25.887462,"longitude":-80.166155},{"name":"CrimeReports","category_code":"web","number_of_employees":22,"founded_year":2007,"deadpooled_year":null,"description":"crime mapping and alerting","total_money_raised":7200000,"offices":[{"description":"","address1":"2015 South 1100 East","address2":"","zip_code":"84106","city":"Salt Lake City","state_code":"UT","country_code":"USA","latitude":40.726342,"longitude":-111.858835}],"country":"USA","state":"UT","city":"Salt Lake City","latitude":40.726342,"longitude":-111.858835},{"name":"BitRock","category_code":"software","number_of_employees":20,"founded_year":2009,"deadpooled_year":null,"description":"","total_money_raised":0,"offices":[{"description":"","address1":"1151 Marina Village Pkwy,","address2":"Suite 101","zip_code":"94501","city":"Alameda","state_code":"CA","country_code":"USA","latitude":37.78424,"longitude":-122.274771}],"country":"USA","state":"CA","city":"Alameda","latitude":37.78424,"longitude":-122.274771},{"name":"JumpForward","category_code":"software","number_of_employees":30,"founded_year":2010,"deadpooled_year":null,"description":"","total_money_raised":0,"offices":[{"description":"","address1":"112 S Sangmon Ave","address2":"3nd Floor","zip_code":"60607","city":"Chicago","state_code":"IL","country_code":"USA","latitude":41.857204,"longitude":-87.623923}],"country":"USA","state":"IL","city":"Chicago","latitude":41.857204,"longitude":-87.623923},{"name":"PurpleTalk","category_code":"mobile","number_of_employees":350,"founded_year":2008,"deadpooled_year":null,"description":"Mobile Apps and Product Development","total_money_raised":0,"offices":[{"description":"US HEADQUARTERS","address1":"2211 Commerce Street,","address2":"Suite 200,","zip_code":"75201","city":"Dallas","state_code":"TX","country_code":"USA","latitude":37.387712,"longitude":-121.990755},{"description":"RESEARCH LAB - NY","address1":"65 Vestry Street","address2":"","zip_code":"10013","city":"New York","state_code":"NY","country_code":"USA","latitude":null,"longitude":null},{"description":"HYDERABAD LAB","address1":"8-2-120\/13, Road No. 2","address2":"Banjara Hills","zip_code":"","city":"Hyderabad","state_code":null,"country_code":"IND","latitude":null,"longitude":null}],"country":"USA","state":"TX","city":"Dallas","latitude":37.387712,"longitude":-121.990755},{"name":"Zendesk","category_code":"software","number_of_employees":400,"founded_year":2007,"deadpooled_year":null,"description":"customer service solution","total_money_raised":85500000,"offices":[{"description":"Headquarters","address1":"989 Market St","address2":"St 300","zip_code":"94102","city":"San Francisco","state_code":"CA","country_code":"USA","latitude":55.676294,"longitude":12.568116}],"country":"USA","state":"CA","city":"San Francisco","latitude":55.676294,"longitude":12.568116},{"name":"N-Play","category_code":"social","number_of_employees":25,"founded_year":2011,"deadpooled_year":null,"description":"Real Estate Social Media Platform","total_money_raised":0,"offices":[{"description":"Headquarters","address1":"4899 Belfort Road","address2":"Suite 201","zip_code":"32256","city":"Jacksonville","state_code":"FL","country_code":"USA","latitude":30.26955,"longitude":-81.564709}],"country":"USA","state":"FL","city":"Jacksonville","latitude":30.26955,"longitude":-81.564709},{"name":"OpenDrive","category_code":"software","number_of_employees":25,"founded_year":2008,"deadpooled_year":null,"description":"Online Storage, Backup & File Management","total_money_raised":0,"offices":[{"description":"World Headquarters","address1":"228 Hamilton Avenue","address2":"3rd Floor","zip_code":"94301","city":"Palo Alto","state_code":"CA","country_code":"USA","latitude":37.794043,"longitude":-122.39736}],"country":"USA","state":"CA","city":"Palo Alto","latitude":37.794043,"longitude":-122.39736},{"name":"Kontagent","category_code":"analytics","number_of_employees":80,"founded_year":2007,"deadpooled_year":null,"description":"Mobile Analytics","total_money_raised":17500000,"offices":[{"description":"Corporate Headquarters","address1":"201 Mission Street","address2":"25th Floor","zip_code":"94105","city":"San Francisco","state_code":"CA","country_code":"USA","latitude":37.7797255,"longitude":-122.4020593}],"country":"USA","state":"CA","city":"San Francisco","latitude":37.7797255,"longitude":-122.4020593},{"name":"MapVersa","category_code":"software","number_of_employees":110,"founded_year":2008,"deadpooled_year":null,"description":"India Maps Data Provider","total_money_raised":0,"offices":[{"description":"ANNOVA Technologies Inc.","address1":"10180 Telesis Ct.","address2":"","zip_code":"92121","city":"San Diego","state_code":"CA","country_code":"USA","latitude":32.902266,"longitude":-117.20834}],"country":"USA","state":"CA","city":"San Diego","latitude":32.902266,"longitude":-117.20834},{"name":"Samfind","category_code":"software","number_of_employees":30,"founded_year":2008,"deadpooled_year":null,"description":"Social & Bookmarks Bar","total_money_raised":125,"offices":[{"description":"World Headquarters","address1":"","address2":"","zip_code":"90035","city":"Los Angeles","state_code":"CA","country_code":"USA","latitude":34.052107,"longitude":-118.385271}],"country":"USA","state":"CA","city":"Los Angeles","latitude":34.052107,"longitude":-118.385271},{"name":"Huddler","category_code":"web","number_of_employees":52,"founded_year":2007,"deadpooled_year":null,"description":"We Know Communities.","total_money_raised":22800000,"offices":[{"description":"HQ","address1":"525 Market St.","address2":"Suite 200","zip_code":"94105","city":"San Francisco","state_code":"CA","country_code":"USA","latitude":37.7893215,"longitude":-122.4013624}],"country":"USA","state":"CA","city":"San Francisco","latitude":37.7893215,"longitude":-122.4013624},{"name":"Hunch","category_code":"web","number_of_employees":23,"founded_year":2007,"deadpooled_year":null,"description":"Decision making website.","total_money_raised":19200000,"offices":[{"description":"","address1":"54 West 21st. Street...","address2":"","zip_code":"10010","city":"New York","state_code":"NY","country_code":"USA","latitude":40.741179,"longitude":-73.993182}],"country":"USA","state":"NY","city":"New York","latitude":40.741179,"longitude":-73.993182},{"name":"ngmoco","category_code":"games_video","number_of_employees":150,"founded_year":2008,"deadpooled_year":null,"description":"Games for the iPhone","total_money_raised":44800000,"offices":[{"description":"Secret Factory","address1":"185 Berry Street","address2":"Suite 3000","zip_code":"94107","city":"San Francisco","state_code":"CA","country_code":"USA","latitude":37.7705096,"longitude":-122.4015807}],"country":"USA","state":"CA","city":"San Francisco","latitude":37.7705096,"longitude":-122.4015807},{"name":"Integrate","category_code":"software","number_of_employees":120,"founded_year":2010,"deadpooled_year":null,"description":"Marketing Software and Media Services","total_money_raised":34800000,"offices":[{"description":"Scottsdale HQ","address1":"4900 N. Scottsdale Road","address2":"Suite 4000","zip_code":"85251","city":"Scottsdale","state_code":"AZ","country_code":"USA","latitude":40.7481039,"longitude":-74.0353787},{"description":"Colorado Office","address1":"1821 Blake St.","address2":"STe 2A","zip_code":"80202","city":"Denver","state_code":"CO","country_code":"USA","latitude":null,"longitude":null},{"description":"San Francisco Office","address1":"23 Geary St","address2":"10th Floor","zip_code":"94104","city":"San Francisco","state_code":"CA","country_code":"USA","latitude":null,"longitude":null},{"description":"Boston Office","address1":"239 South Street","address2":"4th Floor","zip_code":"01748","city":"Hopkinton","state_code":"MA","country_code":"USA","latitude":null,"longitude":null}],"country":"USA","state":"AZ","city":"Scottsdale","latitude":40.7481039,"longitude":-74.0353787},{"name":"LockerDome","category_code":"social","number_of_employees":27,"founded_year":2008,"deadpooled_year":null,"description":"interest-based social media platform","total_money_raised":8090000,"offices":[{"description":"HQ","address1":"1221 Washington Ave","address2":"","zip_code":"63103","city":"St. Louis","state_code":"MO","country_code":"USA","latitude":38.6501668,"longitude":-90.2598684},{"description":"NYC","address1":"175 Varick St.","address2":"Suite 523","zip_code":"10014","city":"New York City","state_code":"NY","country_code":"USA","latitude":40.7272544,"longitude":-74.0057152}],"country":"USA","state":"MO","city":"St. Louis","latitude":38.6501668,"longitude":-90.2598684},{"name":"Poll Everywhere","category_code":"mobile","number_of_employees":20,"founded_year":2008,"deadpooled_year":null,"description":"Live-experience mobile polling site","total_money_raised":20,"offices":[{"description":"Global Head Quarters","address1":"1550 Bryant St","address2":"Suite 700","zip_code":"94103","city":"San Francisco","state_code":"CA","country_code":"USA","latitude":41.864917,"longitude":-87.625271}],"country":"USA","state":"CA","city":"San Francisco","latitude":41.864917,"longitude":-87.625271},{"name":"Lyft","category_code":"software","number_of_employees":180,"founded_year":2007,"deadpooled_year":null,"description":"Your friend with a car\u2122","total_money_raised":82500000,"offices":[{"description":"Lyft HQ","address1":"","address2":"","zip_code":"94104","city":"San Francisco","state_code":"CA","country_code":"USA","latitude":37.7899027,"longitude":-122.4007846}],"country":"USA","state":"CA","city":"San Francisco","latitude":37.7899027,"longitude":-122.4007846},{"name":"Mobclix","category_code":"mobile","number_of_employees":26,"founded_year":2008,"deadpooled_year":null,"description":"iPhone Ad Exchange Provider","total_money_raised":0,"offices":[{"description":"Headquarters","address1":"102 University Ave","address2":"","zip_code":"94301","city":"Palo Alto","state_code":"CA","country_code":"USA","latitude":37.448598,"longitude":-122.158497}],"country":"USA","state":"CA","city":"Palo Alto","latitude":37.448598,"longitude":-122.158497},{"name":"PeopleBrowsr","category_code":"web","number_of_employees":35,"founded_year":2007,"deadpooled_year":null,"description":"Social Analytics For Marketers","total_money_raised":0,"offices":[{"description":"SF HQ","address1":"474 Bryant Street","address2":"","zip_code":"94107","city":"San Francisco","state_code":"CA","country_code":"USA","latitude":37.459112,"longitude":-122.142326},{"description":"","address1":"443 Park Avenue South","address2":"","zip_code":"10016","city":"New York","state_code":"NY","country_code":"USA","latitude":null,"longitude":null}],"country":"USA","state":"CA","city":"San Francisco","latitude":37.459112,"longitude":-122.142326},{"name":"Call Me Later","category_code":"web","number_of_employees":25,"founded_year":2008,"deadpooled_year":null,"description":"Wake Up Caller","total_money_raised":0,"offices":[{"description":"","address1":"5753 nw158 st","address2":"","zip_code":"33014","city":"Miami","state_code":"FL","country_code":"USA","latitude":25.916982,"longitude":-80.29413}],"country":"USA","state":"FL","city":"Miami","latitude":25.916982,"longitude":-80.29413},{"name":"Lolapps","category_code":"web","number_of_employees":65,"founded_year":2008,"deadpooled_year":null,"description":"","total_money_raised":4000000,"offices":[{"description":"","address1":"116 New Montgomery","address2":"","zip_code":"94105","city":"San Francisco","state_code":"CA","country_code":"USA","latitude":37.7870923,"longitude":-122.3999719}],"country":"USA","state":"CA","city":"San Francisco","latitude":37.7870923,"longitude":-122.3999719},{"name":"SmartTouch Mobile","category_code":"mobile","number_of_employees":25,"founded_year":2007,"deadpooled_year":null,"description":null,"total_money_raised":0,"offices":[{"description":"SmartTouch Mobile HQ","address1":"","address2":"","zip_code":"92037","city":"La Jolla","state_code":"CA","country_code":"USA","latitude":32.847521,"longitude":-117.274609}],"country":"USA","state":"CA","city":"La Jolla","latitude":32.847521,"longitude":-117.274609},{"name":"Integrate","category_code":"software","number_of_employees":120,"founded_year":2010,"deadpooled_year":null,"description":"Marketing Software and Media Services","total_money_raised":34800000,"offices":[{"description":"Scottsdale HQ","address1":"4900 N. Scottsdale Road","address2":"Suite 4000","zip_code":"85251","city":"Scottsdale","state_code":"AZ","country_code":"USA","latitude":40.7481039,"longitude":-74.0353787},{"description":"Colorado Office","address1":"1821 Blake St.","address2":"STe 2A","zip_code":"80202","city":"Denver","state_code":"CO","country_code":"USA","latitude":null,"longitude":null},{"description":"San Francisco Office","address1":"23 Geary St","address2":"10th Floor","zip_code":"94104","city":"San Francisco","state_code":"CA","country_code":"USA","latitude":null,"longitude":null},{"description":"Boston Office","address1":"239 South Street","address2":"4th Floor","zip_code":"01748","city":"Hopkinton","state_code":"MA","country_code":"USA","latitude":null,"longitude":null}],"country":"USA","state":"AZ","city":"Scottsdale","latitude":40.7481039,"longitude":-74.0353787},{"name":"LockerDome","category_code":"social","number_of_employees":27,"founded_year":2008,"deadpooled_year":null,"description":"interest-based social media platform","total_money_raised":8090000,"offices":[{"description":"HQ","address1":"1221 Washington Ave","address2":"","zip_code":"63103","city":"St. Louis","state_code":"MO","country_code":"USA","latitude":38.6501668,"longitude":-90.2598684},{"description":"NYC","address1":"175 Varick St.","address2":"Suite 523","zip_code":"10014","city":"New York City","state_code":"NY","country_code":"USA","latitude":40.7272544,"longitude":-74.0057152}],"country":"USA","state":"MO","city":"St. Louis","latitude":38.6501668,"longitude":-90.2598684},{"name":"Poll Everywhere","category_code":"mobile","number_of_employees":20,"founded_year":2008,"deadpooled_year":null,"description":"Live-experience mobile polling site","total_money_raised":20,"offices":[{"description":"Global Head Quarters","address1":"1550 Bryant St","address2":"Suite 700","zip_code":"94103","city":"San Francisco","state_code":"CA","country_code":"USA","latitude":41.864917,"longitude":-87.625271}],"country":"USA","state":"CA","city":"San Francisco","latitude":41.864917,"longitude":-87.625271},{"name":"Lyft","category_code":"software","number_of_employees":180,"founded_year":2007,"deadpooled_year":null,"description":"Your friend with a car\u2122","total_money_raised":82500000,"offices":[{"description":"Lyft HQ","address1":"","address2":"","zip_code":"94104","city":"San Francisco","state_code":"CA","country_code":"USA","latitude":37.7899027,"longitude":-122.4007846}],"country":"USA","state":"CA","city":"San Francisco","latitude":37.7899027,"longitude":-122.4007846},{"name":"Mobclix","category_code":"mobile","number_of_employees":26,"founded_year":2008,"deadpooled_year":null,"description":"iPhone Ad Exchange Provider","total_money_raised":0,"offices":[{"description":"Headquarters","address1":"102 University Ave","address2":"","zip_code":"94301","city":"Palo Alto","state_code":"CA","country_code":"USA","latitude":37.448598,"longitude":-122.158497}],"country":"USA","state":"CA","city":"Palo Alto","latitude":37.448598,"longitude":-122.158497},{"name":"PeopleBrowsr","category_code":"web","number_of_employees":35,"founded_year":2007,"deadpooled_year":null,"description":"Social Analytics For Marketers","total_money_raised":0,"offices":[{"description":"SF HQ","address1":"474 Bryant Street","address2":"","zip_code":"94107","city":"San Francisco","state_code":"CA","country_code":"USA","latitude":37.459112,"longitude":-122.142326},{"description":"","address1":"443 Park Avenue South","address2":"","zip_code":"10016","city":"New York","state_code":"NY","country_code":"USA","latitude":null,"longitude":null}],"country":"USA","state":"CA","city":"San Francisco","latitude":37.459112,"longitude":-122.142326},{"name":"Call Me Later","category_code":"web","number_of_employees":25,"founded_year":2008,"deadpooled_year":null,"description":"Wake Up Caller","total_money_raised":0,"offices":[{"description":"","address1":"5753 nw158 st","address2":"","zip_code":"33014","city":"Miami","state_code":"FL","country_code":"USA","latitude":25.916982,"longitude":-80.29413}],"country":"USA","state":"FL","city":"Miami","latitude":25.916982,"longitude":-80.29413},{"name":"Lolapps","category_code":"web","number_of_employees":65,"founded_year":2008,"deadpooled_year":null,"description":"","total_money_raised":4000000,"offices":[{"description":"","address1":"116 New Montgomery","address2":"","zip_code":"94105","city":"San Francisco","state_code":"CA","country_code":"USA","latitude":37.7870923,"longitude":-122.3999719}],"country":"USA","state":"CA","city":"San Francisco","latitude":37.7870923,"longitude":-122.3999719},{"name":"SmartTouch Mobile","category_code":"mobile","number_of_employees":25,"founded_year":2007,"deadpooled_year":null,"description":null,"total_money_raised":0,"offices":[{"description":"SmartTouch Mobile HQ","address1":"","address2":"","zip_code":"92037","city":"La Jolla","state_code":"CA","country_code":"USA","latitude":32.847521,"longitude":-117.274609}],"country":"USA","state":"CA","city":"La Jolla","latitude":32.847521,"longitude":-117.274609},{"name":"inTALK","category_code":"mobile","number_of_employees":100,"founded_year":2007,"deadpooled_year":null,"description":null,"total_money_raised":0,"offices":[{"description":"HQ","address1":"2151 E Broadway Road","address2":"Suite 106","zip_code":"85282","city":"Tempe","state_code":"AZ","country_code":"USA","latitude":33.407392,"longitude":-111.892085}],"country":"USA","state":"AZ","city":"Tempe","latitude":33.407392,"longitude":-111.892085},{"name":"Gowalla","category_code":"web","number_of_employees":22,"founded_year":2007,"deadpooled_year":null,"description":"Mobile and Web Service","total_money_raised":10400000,"offices":[{"description":"Austin Headquarters","address1":"","address2":"","zip_code":"78701","city":"Austin","state_code":"TX","country_code":"USA","latitude":30.2729209,"longitude":-97.7443863}],"country":"USA","state":"TX","city":"Austin","latitude":30.2729209,"longitude":-97.7443863},{"name":"SocialTwist","category_code":"software","number_of_employees":30,"founded_year":2008,"deadpooled_year":null,"description":"Customer Acquisition Platform","total_money_raised":0,"offices":[{"description":"SocialTwist HQ","address1":"1975 W El Camino Real","address2":"Suite 301","zip_code":"94040","city":"Mountain View","state_code":"CA","country_code":"USA","latitude":37.355275,"longitude":-122.014791},{"description":"SocialTwist India","address1":"6th Floor, Auriga Building","address2":"Ascendas 'V' IT Park - Software Units Layout","zip_code":"500081","city":"Madhapur, Hyderabad","state_code":null,"country_code":"IND","latitude":null,"longitude":null}],"country":"USA","state":"CA","city":"Mountain View","latitude":37.355275,"longitude":-122.014791},{"name":"Groupon","category_code":"web","number_of_employees":10000,"founded_year":2008,"deadpooled_year":null,"description":"Local Daily Deals","total_money_raised":114999999999,"offices":[{"description":"HQ","address1":"600 W. Chicago Ave","address2":"Suite 400","zip_code":"60654","city":"Chicago","state_code":"IL","country_code":"USA","latitude":41.8965162,"longitude":-87.643622},{"description":"Palo Alto Office","address1":"3101 Park Blvd.","address2":"","zip_code":"94086","city":"Palo Alto","state_code":"CA","country_code":"USA","latitude":null,"longitude":null},{"description":"San Francisco Office","address1":"385 Grove St.","address2":"","zip_code":"94102","city":"San Francisco","state_code":"CA","country_code":"USA","latitude":null,"longitude":null},{"description":"Seattle Office","address1":"505 5th Avenue South","address2":"Suite 615","zip_code":"98104","city":"Seattle","state_code":"WA","country_code":"USA","latitude":null,"longitude":null}],"country":"USA","state":"IL","city":"Chicago","latitude":41.8965162,"longitude":-87.643622},{"name":"Big In Japan","category_code":"mobile","number_of_employees":25,"founded_year":2008,"deadpooled_year":null,"description":"Mobile Application Publishing","total_money_raised":700,"offices":[{"description":"Big in Japan, Inc","address1":"1950 Stemmons Freeway","address2":"Suite 2022","zip_code":"75207","city":"Dallas","state_code":"TX","country_code":"USA","latitude":32.800325,"longitude":-96.820064}],"country":"USA","state":"TX","city":"Dallas","latitude":32.800325,"longitude":-96.820064},{"name":"Meteor Games","category_code":"games_video","number_of_employees":70,"founded_year":2007,"deadpooled_year":null,"description":"Social Game Development Studio","total_money_raised":0,"offices":[{"description":"","address1":"","address2":"","zip_code":"90210","city":"Beverly Hills","state_code":"CA","country_code":"USA","latitude":34.09316,"longitude":-118.378335}],"country":"USA","state":"CA","city":"Beverly Hills","latitude":34.09316,"longitude":-118.378335},{"name":"Poptent","category_code":"photo_video","number_of_employees":60,"founded_year":2007,"deadpooled_year":null,"description":"Crowdsourced Video Production","total_money_raised":8500000,"offices":[{"description":"Philadelphia Office","address1":"555 E. North Lane","address2":"Suite 5050","zip_code":"19428","city":"Conshohocken","state_code":"PA","country_code":"USA","latitude":40.0018743,"longitude":-75.2747196},{"description":"Orange County Office","address1":"2753 Camino Capistrano Suite A-200","address2":"","zip_code":"92672","city":"San Clemente","state_code":"CA","country_code":"USA","latitude":null,"longitude":null}],"country":"USA","state":"PA","city":"Conshohocken","latitude":40.0018743,"longitude":-75.2747196},{"name":"TVGla","category_code":"web","number_of_employees":55,"founded_year":2007,"deadpooled_year":null,"description":"Digital Marketing Agency","total_money_raised":0,"offices":[{"description":"Los Angeles","address1":"5340 Alla Road Suite 100","address2":"","zip_code":"90066","city":"Los Angeles","state_code":"CA","country_code":"USA","latitude":33.988687,"longitude":-118.439532}],"country":"USA","state":"CA","city":"Los Angeles","latitude":33.988687,"longitude":-118.439532},{"name":"Vuclip","category_code":"photo_video","number_of_employees":100,"founded_year":2008,"deadpooled_year":null,"description":"Video on any mobile","total_money_raised":27000000,"offices":[{"description":"Head Quarters","address1":"1551 McCarthy Boulevard","address2":"Suite 213","zip_code":"95035","city":"Milpitas","state_code":"CA","country_code":"USA","latitude":37.406027,"longitude":-121.918642},{"description":"","address1":"","address2":"","zip_code":"","city":"New Delhi","state_code":null,"country_code":"IND","latitude":28.635308,"longitude":77.22496},{"description":"","address1":"","address2":"","zip_code":"","city":"Mumbai","state_code":null,"country_code":"IND","latitude":19.0759837,"longitude":72.8776559},{"description":"","address1":"","address2":"","zip_code":"","city":"","state_code":null,"country_code":"SGP","latitude":null,"longitude":null}],"country":"USA","state":"CA","city":"Milpitas","latitude":37.406027,"longitude":-121.918642},{"name":"Pongr","category_code":"software","number_of_employees":20,"founded_year":2008,"deadpooled_year":null,"description":"Visual Response Marketing","total_money_raised":0,"offices":[{"description":"Boston Office","address1":"129 Newbury St","address2":"4th Floor","zip_code":"02116","city":"Boston","state_code":"MA","country_code":"USA","latitude":41.587539,"longitude":-93.625499},{"description":"Des Moines Office","address1":"418 6th Ave","address2":"Suite 1210","zip_code":"50309","city":"Des Moines","state_code":"IA","country_code":"USA","latitude":42.3513279,"longitude":-71.0766717}],"country":"USA","state":"MA","city":"Boston","latitude":41.587539,"longitude":-93.625499},{"name":"Asyncast Corporation","category_code":"mobile","number_of_employees":20,"founded_year":2007,"deadpooled_year":null,"description":null,"total_money_raised":0,"offices":[{"description":"Headquarters","address1":"901 Campisi Way, Suite 340","address2":"","zip_code":"95008","city":"Campbell","state_code":"CA","country_code":"USA","latitude":37.291228,"longitude":-121.933651}],"country":"USA","state":"CA","city":"Campbell","latitude":37.291228,"longitude":-121.933651},{"name":"Yipit","category_code":"web","number_of_employees":23,"founded_year":2010,"deadpooled_year":null,"description":"Every deal. One place.","total_money_raised":7550000,"offices":[{"description":"HQ","address1":"3 W 18th","address2":"2nd Floor","zip_code":"10011","city":"New York","state_code":"NY","country_code":"USA","latitude":40.744618,"longitude":-73.987764}],"country":"USA","state":"NY","city":"New York","latitude":40.744618,"longitude":-73.987764},{"name":"CaptainU","category_code":"software","number_of_employees":20,"founded_year":2007,"deadpooled_year":null,"description":"","total_money_raised":0,"offices":[{"description":"SF Office","address1":"","address2":"","zip_code":"94102","city":"San Francisco","state_code":"CA","country_code":"USA","latitude":41.7894201,"longitude":-87.5962319}],"country":"USA","state":"CA","city":"San Francisco","latitude":41.7894201,"longitude":-87.5962319},{"name":"Decho","category_code":"web","number_of_employees":150,"founded_year":2008,"deadpooled_year":null,"description":"","total_money_raised":0,"offices":[{"description":"","address1":"615 Second Avenue","address2":"Suite 280","zip_code":"98104","city":"Seattle","state_code":"WA","country_code":"USA","latitude":47.6024156,"longitude":-122.3326145}],"country":"USA","state":"WA","city":"Seattle","latitude":47.6024156,"longitude":-122.3326145},{"name":"Clearleap","category_code":"software","number_of_employees":75,"founded_year":2007,"deadpooled_year":null,"description":"Television and Online Video IP Delivery","total_money_raised":41300000,"offices":[{"description":"Atlanta Headquarters","address1":"3090 Premiere Parkway","address2":"Suite 400","zip_code":"30097","city":"Duluth","state_code":"GA","country_code":"USA","latitude":34.070164,"longitude":-84.058708}],"country":"USA","state":"GA","city":"Duluth","latitude":34.070164,"longitude":-84.058708},{"name":"Double Encore","category_code":"software","number_of_employees":42,"founded_year":2008,"deadpooled_year":null,"description":"Mobile App Experiences","total_money_raised":25,"offices":[{"description":"Double Encore, Inc","address1":"820 16th Street","address2":"Suite 700","zip_code":"80202","city":"Denver","state_code":"CO","country_code":"USA","latitude":39.69263,"longitude":-104.955012}],"country":"USA","state":"CO","city":"Denver","latitude":39.69263,"longitude":-104.955012},{"name":"ZeroTurnaround","category_code":"software","number_of_employees":70,"founded_year":2007,"deadpooled_year":null,"description":"Productivity tools for Java developers","total_money_raised":2700000,"offices":[{"description":"Tartu","address1":"\u00c3\u0153likooli 2","address2":"","zip_code":"51003","city":"Tartu","state_code":"MA","country_code":"USA","latitude":58.3820542,"longitude":26.731054},{"description":"Tallinn","address1":"Narva mnt 7d","address2":"","zip_code":"","city":"Tallinn","state_code":null,"country_code":"EST","latitude":null,"longitude":null},{"description":"Prague","address1":"","address2":"","zip_code":"","city":"Prague","state_code":null,"country_code":"CZE","latitude":null,"longitude":null},{"description":"Boston","address1":"","address2":"","zip_code":"","city":"Boston","state_code":"MA","country_code":"USA","latitude":null,"longitude":null}],"country":"USA","state":"MA","city":"Tartu","latitude":58.3820542,"longitude":26.731054},{"name":"expressor software","category_code":"software","number_of_employees":35,"founded_year":2007,"deadpooled_year":null,"description":"data integration software","total_money_raised":29100000,"offices":[{"description":"Headquarters","address1":"1 New England Executive Park","address2":"","zip_code":"01803","city":"Burlington","state_code":"MA","country_code":"USA","latitude":42.485102,"longitude":-71.211568}],"country":"USA","state":"MA","city":"Burlington","latitude":42.485102,"longitude":-71.211568},{"name":"CyberSynchs","category_code":"mobile","number_of_employees":100,"founded_year":2008,"deadpooled_year":null,"description":"Universal Data Synchronization Solution","total_money_raised":0,"offices":[{"description":"","address1":"44 West 28th street","address2":"8th floor","zip_code":"10001","city":"NYC","state_code":"NY","country_code":"USA","latitude":40.745534,"longitude":-73.990033}],"country":"USA","state":"NY","city":"NYC","latitude":40.745534,"longitude":-73.990033},{"name":"Analytix On Demand","category_code":"software","number_of_employees":25,"founded_year":2008,"deadpooled_year":null,"description":"","total_money_raised":0,"offices":[{"description":"Corporate Headquarters","address1":"Two Park Plaza","address2":"Suite 200","zip_code":"92614","city":"Irvine","state_code":"CA","country_code":"USA","latitude":33.67983,"longitude":-117.839046},{"description":"Houston","address1":"Two Allen Center","address2":"1200 Smith St., 16th Floor","zip_code":"77002","city":"Houston","state_code":"TX","country_code":"USA","latitude":null,"longitude":null},{"description":"Silicon Valley","address1":"2033 Gateway Place, 5th Floor","address2":"","zip_code":"95110","city":"San Jose","state_code":"CA","country_code":"USA","latitude":null,"longitude":null}],"country":"USA","state":"CA","city":"Irvine","latitude":33.67983,"longitude":-117.839046},{"name":"Pardot","category_code":"software","number_of_employees":50,"founded_year":2007,"deadpooled_year":null,"description":"SaaS Marketing Automation","total_money_raised":0,"offices":[{"description":"","address1":"950 E. Paces Ferry Rd.","address2":"Sute 3300","zip_code":"30326","city":"Atlanta","state_code":"GA","country_code":"USA","latitude":33.84662,"longitude":-84.3565171}],"country":"USA","state":"GA","city":"Atlanta","latitude":33.84662,"longitude":-84.3565171},{"name":"LeapFish","category_code":"web","number_of_employees":110,"founded_year":2008,"deadpooled_year":null,"description":"Real Time Search Engine","total_money_raised":0,"offices":[{"description":"LeapFish Headquarters","address1":"4420 Rosewood Drive","address2":"Suite 2550","zip_code":"94588","city":"pleasanton","state_code":"CA","country_code":"USA","latitude":37.700863,"longitude":-121.8794206}],"country":"USA","state":"CA","city":"pleasanton","latitude":37.700863,"longitude":-121.8794206},{"name":"Unison Technologies","category_code":"software","number_of_employees":30,"founded_year":2011,"deadpooled_year":null,"description":"Fast, secure teamwork platform","total_money_raised":0,"offices":[{"description":"Headquarters","address1":"424 W 33rd Street, Suite 410","address2":"","zip_code":"10001","city":"New York","state_code":"NY","country_code":"USA","latitude":40.7645772,"longitude":-73.9799007}],"country":"USA","state":"NY","city":"New York","latitude":40.7645772,"longitude":-73.9799007},{"name":"Silver Tail Systems","category_code":"analytics","number_of_employees":90,"founded_year":2008,"deadpooled_year":null,"description":"Business Logic Abuse Fraud Protection ","total_money_raised":22100000,"offices":[{"description":"Headquarters","address1":"1010 El Camino Real #300","address2":"","zip_code":"94025","city":"Menlo Park","state_code":"CA","country_code":"USA","latitude":37.4280877,"longitude":-122.143368}],"country":"USA","state":"CA","city":"Menlo Park","latitude":37.4280877,"longitude":-122.143368},{"name":"BrowserObject","category_code":"software","number_of_employees":20,"founded_year":2007,"deadpooled_year":null,"description":null,"total_money_raised":0,"offices":[{"description":"BrowserObject.com","address1":"1901 60th PL","address2":"L1020","zip_code":"34203","city":"Brandenton","state_code":"FL","country_code":"USA","latitude":27.445135,"longitude":-82.485057}],"country":"USA","state":"FL","city":"Brandenton","latitude":27.445135,"longitude":-82.485057},{"name":"RideCharge","category_code":"mobile","number_of_employees":75,"founded_year":2007,"deadpooled_year":null,"description":"Mobile transportation solutions","total_money_raised":8600000,"offices":[{"description":"Headquarters","address1":"5904 Richmond Hwy","address2":"Suite 600","zip_code":"22303","city":"Alexandria","state_code":"VA","country_code":"USA","latitude":38.814329,"longitude":-77.038605}],"country":"USA","state":"VA","city":"Alexandria","latitude":38.814329,"longitude":-77.038605},{"name":"Klout","category_code":"social","number_of_employees":79,"founded_year":2008,"deadpooled_year":null,"description":"Measures Online Influence","total_money_raised":40000000,"offices":[{"description":"","address1":"77 Stillman St.","address2":"","zip_code":"94103","city":"San Francisco","state_code":"CA","country_code":"USA","latitude":34.0497638,"longitude":-118.2474287}],"country":"USA","state":"CA","city":"San Francisco","latitude":34.0497638,"longitude":-118.2474287},{"name":"RJMetrics","category_code":"software","number_of_employees":20,"founded_year":2008,"deadpooled_year":null,"description":"","total_money_raised":7450000,"offices":[{"description":"","address1":"1315 Walnut Street Suite 1532","address2":"","zip_code":"19107","city":"Philadelphia","state_code":"PA","country_code":"USA","latitude":39.9443552,"longitude":-75.1257381}],"country":"USA","state":"PA","city":"Philadelphia","latitude":39.9443552,"longitude":-75.1257381},{"name":"5th Finger","category_code":"mobile","number_of_employees":50,"founded_year":2008,"deadpooled_year":null,"description":"Responsive Design Solutions Provider","total_money_raised":7000000,"offices":[{"description":"Headquarters","address1":"222 Sutter St Suite 450","address2":"","zip_code":"94108","city":"San Francisco","state_code":"CA","country_code":"USA","latitude":37.7900992,"longitude":-122.4021988}],"country":"USA","state":"CA","city":"San Francisco","latitude":37.7900992,"longitude":-122.4021988},{"name":"Vocalocity","category_code":"software","number_of_employees":175,"founded_year":2007,"deadpooled_year":null,"description":"Small Business VoIP Solutions","total_money_raised":17100000,"offices":[{"description":"Headquarters","address1":"1375 Peachtree Street NE","address2":"2 Floor","zip_code":"30309","city":"Atlanta","state_code":"GA","country_code":"USA","latitude":33.7812614,"longitude":-84.3675617}],"country":"USA","state":"GA","city":"Atlanta","latitude":33.7812614,"longitude":-84.3675617},{"name":"Skout","category_code":"social","number_of_employees":100,"founded_year":2007,"deadpooled_year":null,"description":"Mobile App for Meeting New People","total_money_raised":22000000,"offices":[{"description":"Headquarters","address1":"301 Howard","address2":"Suite 1500","zip_code":"94105","city":"San Francisco","state_code":"CA","country_code":"USA","latitude":37.7800539,"longitude":-122.3912492},{"description":"","address1":"","address2":"","zip_code":"","city":"Sofia","state_code":null,"country_code":"BGR","latitude":null,"longitude":null},{"description":"","address1":"","address2":"","zip_code":"","city":"Santiago","state_code":null,"country_code":"CHL","latitude":null,"longitude":null}],"country":"USA","state":"CA","city":"San Francisco","latitude":37.7800539,"longitude":-122.3912492},{"name":"AdJuggler","category_code":"software","number_of_employees":27,"founded_year":2008,"deadpooled_year":null,"description":"Digital advertising platform","total_money_raised":0,"offices":[{"description":"","address1":"5440 Cherokee Avenue, Suite 100","address2":"","zip_code":"22312-2374","city":"Alexandria","state_code":"VA","country_code":"USA","latitude":38.804559,"longitude":-77.164776}],"country":"USA","state":"VA","city":"Alexandria","latitude":38.804559,"longitude":-77.164776},{"name":"AssureSign","category_code":"software","number_of_employees":60,"founded_year":2008,"deadpooled_year":null,"description":null,"total_money_raised":0,"offices":[{"description":"Corporate Office","address1":"220 E. Central Parkway","address2":"Suite 3000","zip_code":"32701","city":"Altamonte Springs","state_code":"FL","country_code":"USA","latitude":28.672321,"longitude":-81.384939}],"country":"USA","state":"FL","city":"Altamonte Springs","latitude":28.672321,"longitude":-81.384939},{"name":"Qualvu","category_code":"photo_video","number_of_employees":80,"founded_year":2007,"deadpooled_year":null,"description":"Online video consumer research","total_money_raised":2600000,"offices":[{"description":"Corporate Headquarters","address1":"12039 W Alameda Pkwy","address2":"#Z-2","zip_code":"80228","city":"Lakewood","state_code":"CO","country_code":"USA","latitude":39.661171,"longitude":-105.352174}],"country":"USA","state":"CO","city":"Lakewood","latitude":39.661171,"longitude":-105.352174},{"name":"National Association of Professional Women","category_code":"social","number_of_employees":200,"founded_year":2007,"deadpooled_year":null,"description":"","total_money_raised":0,"offices":[{"description":"Corporate Office","address1":"1325 Franklin Avenue","address2":"Suite 160","zip_code":"11530","city":"Garden City","state_code":"NY","country_code":"USA","latitude":40.7349884,"longitude":-73.637714}],"country":"USA","state":"NY","city":"Garden City","latitude":40.7349884,"longitude":-73.637714},{"name":"Ginger Software","category_code":"software","number_of_employees":50,"founded_year":2007,"deadpooled_year":null,"description":"#1 Proofreader in English","total_money_raised":11700000,"offices":[{"description":"","address1":"405 Waltham St","address2":"# 371","zip_code":"02421","city":"Lexington","state_code":"MA","country_code":"USA","latitude":42.4352222,"longitude":-71.2344601}],"country":"USA","state":"MA","city":"Lexington","latitude":42.4352222,"longitude":-71.2344601},{"name":"Zapproved","category_code":"software","number_of_employees":27,"founded_year":2008,"deadpooled_year":null,"description":"Approval Lifecycle Web Application","total_money_raised":1450000,"offices":[{"description":"Headquarters","address1":"19075 NW Tanasbourne Drive","address2":"Suite 120","zip_code":"97124","city":"Portland","state_code":"OR","country_code":"USA","latitude":45.5251,"longitude":-122.8097}],"country":"USA","state":"OR","city":"Portland","latitude":45.5251,"longitude":-122.8097},{"name":"ExpertHub","category_code":"web","number_of_employees":35,"founded_year":2008,"deadpooled_year":null,"description":"Online Professionals Community","total_money_raised":0,"offices":[{"description":"","address1":"7031 Koll Center Parkway","address2":"Suite 260","zip_code":"94566","city":"Pleasanton","state_code":"CA","country_code":"USA","latitude":37.6621228,"longitude":-121.9009329}],"country":"USA","state":"CA","city":"Pleasanton","latitude":37.6621228,"longitude":-121.9009329},{"name":"StarWind Software","category_code":"software","number_of_employees":42,"founded_year":2008,"deadpooled_year":null,"description":"Storage Virtualization software","total_money_raised":0,"offices":[{"description":"","address1":"40 Mall Rd.","address2":"","zip_code":"01803","city":"Burlington","state_code":"MA","country_code":"USA","latitude":42.487232,"longitude":-71.204372}],"country":"USA","state":"MA","city":"Burlington","latitude":42.487232,"longitude":-71.204372},{"name":"BASH Gaming","category_code":"games_video","number_of_employees":25,"founded_year":2010,"deadpooled_year":null,"description":"Social Mobile Casino Games","total_money_raised":1000000,"offices":[{"description":"US Office","address1":"","address2":"","zip_code":"94555","city":"Fremont","state_code":"CA","country_code":"USA","latitude":37.5561712,"longitude":-122.0780632},{"description":"India Office","address1":"","address2":"","zip_code":"","city":"Bangalore","state_code":null,"country_code":"IND","latitude":12.971606,"longitude":77.594376}],"country":"USA","state":"CA","city":"Fremont","latitude":37.5561712,"longitude":-122.0780632},{"name":"L4 Mobile","category_code":"mobile","number_of_employees":25,"founded_year":2008,"deadpooled_year":null,"description":"Concept to delivery- mobile services","total_money_raised":4800000,"offices":[{"description":"L4 Mobile","address1":"1818 Westlake Ave. N,","address2":"Suite #424","zip_code":"98109","city":"Seattle","state_code":"WA","country_code":"USA","latitude":47.676762,"longitude":-122.2049192}],"country":"USA","state":"WA","city":"Seattle","latitude":47.676762,"longitude":-122.2049192},{"name":"AppZero","category_code":"software","number_of_employees":50,"founded_year":2009,"deadpooled_year":null,"description":"application migration software","total_money_raised":15100000,"offices":[{"description":"HQ","address1":"300 Brickston Sq.","address2":"Suite 201","zip_code":"01810","city":"Andover","state_code":"MA","country_code":"USA","latitude":42.6751888,"longitude":-71.1469003}],"country":"USA","state":"MA","city":"Andover","latitude":42.6751888,"longitude":-71.1469003},{"name":"Viridity Software","category_code":"software","number_of_employees":22,"founded_year":2008,"deadpooled_year":null,"description":"eco-friendly datacenter software","total_money_raised":15000000,"offices":[{"description":"Corporate Headquarters","address1":"5 Burlington Woods Suite 205","address2":"","zip_code":"01803","city":"Burlington","state_code":"MA","country_code":"USA","latitude":42.4871509,"longitude":-71.1986329}],"country":"USA","state":"MA","city":"Burlington","latitude":42.4871509,"longitude":-71.1986329},{"name":"Optify","category_code":"software","number_of_employees":45,"founded_year":2008,"deadpooled_year":null,"description":"Digital Marketing Software","total_money_raised":10800000,"offices":[{"description":"Optify HQ","address1":"710 2nd Avenue","address2":"Suite 840","zip_code":"98104","city":"Seattle","state_code":"WA","country_code":"USA","latitude":47.603364,"longitude":-122.333359}],"country":"USA","state":"WA","city":"Seattle","latitude":47.603364,"longitude":-122.333359},{"name":"Jama Software","category_code":"software","number_of_employees":103,"founded_year":2007,"deadpooled_year":null,"description":"Enterprise: Product Delivery Platform","total_money_raised":13000000,"offices":[{"description":"Headquarters","address1":"1060 NW 9th Avenue","address2":"","zip_code":"97209","city":"Portland","state_code":"OR","country_code":"USA","latitude":45.5309644,"longitude":-122.68038}],"country":"USA","state":"OR","city":"Portland","latitude":45.5309644,"longitude":-122.68038},{"name":"SpaBooker","category_code":"software","number_of_employees":42,"founded_year":2007,"deadpooled_year":null,"description":"Online Reservations and Point-of-Sale","total_money_raised":14700000,"offices":[{"description":"SpaBooker Head Office","address1":"22 Cortlandt St Floor 18","address2":"","zip_code":"10007","city":"New York","state_code":"NY","country_code":"USA","latitude":40.738567,"longitude":-73.987199}],"country":"USA","state":"NY","city":"New York","latitude":40.738567,"longitude":-73.987199},{"name":"SCVNGR","category_code":"games_video","number_of_employees":60,"founded_year":2008,"deadpooled_year":null,"description":"part game, part game platform","total_money_raised":40800000,"offices":[{"description":"SCVNGR","address1":"One Congress","address2":"Suite 111","zip_code":"021114","city":"Boston","state_code":"MA","country_code":"USA","latitude":42.3406534,"longitude":-71.0680027}],"country":"USA","state":"MA","city":"Boston","latitude":42.3406534,"longitude":-71.0680027},{"name":"GameChanger Media","category_code":"software","number_of_employees":20,"founded_year":2009,"deadpooled_year":null,"description":"Digital platform for amateur sports.","total_money_raised":3640000,"offices":[{"description":"New York Office","address1":"86 Chambers St","address2":"2nd Floor","zip_code":"10007","city":"New York","state_code":"NY","country_code":"USA","latitude":40.7078343,"longitude":-74.0136605}],"country":"USA","state":"NY","city":"New York","latitude":40.7078343,"longitude":-74.0136605},{"name":"Z2Live","category_code":"games_video","number_of_employees":130,"founded_year":2009,"deadpooled_year":null,"description":"Mobile Games","total_money_raised":6500000,"offices":[{"description":"Z2Live","address1":"1601 2nd Ave","address2":"Suite 800","zip_code":"98101","city":"Seattle","state_code":"WA","country_code":"USA","latitude":47.6103008,"longitude":-122.3399782}],"country":"USA","state":"WA","city":"Seattle","latitude":47.6103008,"longitude":-122.3399782},{"name":"Y Media Labs","category_code":"mobile","number_of_employees":50,"founded_year":2009,"deadpooled_year":null,"description":"iOS, Android, Blackberry App Development","total_money_raised":0,"offices":[{"description":"","address1":"370 Convention Way","address2":"","zip_code":"94063","city":"Redwood City","state_code":"CA","country_code":"USA","latitude":37.494561,"longitude":-122.229097}],"country":"USA","state":"CA","city":"Redwood City","latitude":37.494561,"longitude":-122.229097},{"name":"Spiral16","category_code":"software","number_of_employees":25,"founded_year":2007,"deadpooled_year":null,"description":"Internet Monitoring Solution\/Service","total_money_raised":0,"offices":[{"description":"Headquarters","address1":"7171 W 95th St","address2":"Suite 310","zip_code":"66212","city":"Overland Park","state_code":"KS","country_code":"USA","latitude":38.929582,"longitude":-94.660375}],"country":"USA","state":"KS","city":"Overland Park","latitude":38.929582,"longitude":-94.660375},{"name":"UNITY Mobile","category_code":"mobile","number_of_employees":37,"founded_year":2007,"deadpooled_year":null,"description":"Web-Based Mobile Publishing","total_money_raised":0,"offices":[{"description":"US Office","address1":"10051 5th Street N","address2":"Ste. 101","zip_code":"33702","city":"St. Petersburg","state_code":"FL","country_code":"USA","latitude":27.863376,"longitude":-82.63997},{"description":"Prague Office","address1":"Portheimka Center","address2":"Namesti 14. rijna 17","zip_code":"15000","city":"Prague 5 Smichov","state_code":null,"country_code":"CZE","latitude":null,"longitude":null}],"country":"USA","state":"FL","city":"St. Petersburg","latitude":27.863376,"longitude":-82.63997},{"name":"tracx","category_code":"analytics","number_of_employees":40,"founded_year":2008,"deadpooled_year":null,"description":"Social Media Management  System (SMMS)","total_money_raised":7900000,"offices":[{"description":"HQ","address1":"104 West 27th Street,","address2":"3rd Floor","zip_code":"10001","city":"New York","state_code":"NY","country_code":"USA","latitude":32.0554,"longitude":34.7595}],"country":"USA","state":"NY","city":"New York","latitude":32.0554,"longitude":34.7595},{"name":"Chartbeat","category_code":"analytics","number_of_employees":50,"founded_year":2009,"deadpooled_year":null,"description":"Realtime Web analytics","total_money_raised":14500000,"offices":[{"description":"","address1":"826 Broadway","address2":"6th Floor","zip_code":"10003","city":"New York","state_code":"NY","country_code":"USA","latitude":40.73343,"longitude":-73.990967}],"country":"USA","state":"NY","city":"New York","latitude":40.73343,"longitude":-73.990967},{"name":"Basho Technologies","category_code":"software","number_of_employees":110,"founded_year":2007,"deadpooled_year":null,"description":"Distributed Database and Cloud Storage ","total_money_raised":29900000,"offices":[{"description":"World Headquarters","address1":"700 Massachusetts Ave.","address2":"2nd Floor","zip_code":"02139","city":"Cambridge","state_code":"MA","country_code":"USA","latitude":42.365867,"longitude":-71.092285},{"description":"Basho West","address1":"929 Market St.","address2":"Suite 500","zip_code":"94103","city":"San Francisco","state_code":"CA","country_code":"USA","latitude":null,"longitude":null},{"description":"Washington DC Office","address1":"12930 Worldgate Drive","address2":"Suite 120","zip_code":"20170","city":"Herndon","state_code":"VA","country_code":"USA","latitude":null,"longitude":null},{"description":"London Office","address1":"61 Rivington,","address2":"","zip_code":"","city":"London, EC2A 3QQ","state_code":null,"country_code":"GBR","latitude":null,"longitude":null},{"description":"Basho Japan","address1":"NK7 Building 3rd Floor 2-9","address2":"Yotsuya Shinjuku-ku","zip_code":"160-0004","city":"Tokyo","state_code":null,"country_code":"JPN","latitude":null,"longitude":null}],"country":"USA","state":"MA","city":"Cambridge","latitude":42.365867,"longitude":-71.092285},{"name":"Adeptol","category_code":"software","number_of_employees":60,"founded_year":2007,"deadpooled_year":null,"description":"Leader in viewing technology","total_money_raised":0,"offices":[{"description":"HeadOffice","address1":"3333 Bowers Avenue, Suite 130","address2":"","zip_code":"95054","city":"Santa Clara","state_code":"CA","country_code":"USA","latitude":37.381341,"longitude":-121.977065}],"country":"USA","state":"CA","city":"Santa Clara","latitude":37.381341,"longitude":-121.977065},{"name":"Busca Corp","category_code":"games_video","number_of_employees":45,"founded_year":2007,"deadpooled_year":null,"description":"Spanish-speaking Entertainment Network","total_money_raised":5000000,"offices":[{"description":"Busca Corp. USA","address1":"7590 Fay Ave. Suite 506","address2":"","zip_code":"92037","city":"La Jolla","state_code":"CA","country_code":"USA","latitude":32.841791,"longitude":-117.274602},{"description":"Busca Corp. Tijuana","address1":"Calle Brasil No. 8471","address2":"Col. Juarez","zip_code":"22040","city":"Tijuana, B.C.","state_code":null,"country_code":"MEX","latitude":32.5217442,"longitude":-117.0274947},{"description":"Busca Corp. Mexico City","address1":"Insurgentes Sur 348 Piso 9","address2":"Col. Roma","zip_code":"06700","city":"Mexico City","state_code":null,"country_code":"MEX","latitude":19.4164309,"longitude":-99.1651395}],"country":"USA","state":"CA","city":"La Jolla","latitude":32.841791,"longitude":-117.274602},{"name":"Milo","category_code":"web","number_of_employees":20,"founded_year":2008,"deadpooled_year":null,"description":"Local Shopping","total_money_raised":4950000,"offices":[{"description":"Headquarters","address1":"170A University Ave.","address2":"","zip_code":"94301","city":"Palo Alto","state_code":"CA","country_code":"USA","latitude":37.444531,"longitude":-122.163352}],"country":"USA","state":"CA","city":"Palo Alto","latitude":37.444531,"longitude":-122.163352},{"name":"Servo Software","category_code":"software","number_of_employees":40,"founded_year":2008,"deadpooled_year":null,"description":"Wireless software provider","total_money_raised":3010000,"offices":[{"description":"World Headquarters","address1":"1900 S. Norfolk","address2":"Suite 350","zip_code":"94403","city":"San Mateo","state_code":"CA","country_code":"USA","latitude":37.552262,"longitude":-122.292146}],"country":"USA","state":"CA","city":"San Mateo","latitude":37.552262,"longitude":-122.292146},{"name":"ArcTouch","category_code":"mobile","number_of_employees":45,"founded_year":2008,"deadpooled_year":null,"description":"mobile app development company","total_money_raised":0,"offices":[{"description":"","address1":"340 Brannan St. #302","address2":"","zip_code":"94107","city":"San Francisco","state_code":"CA","country_code":"USA","latitude":37.779868,"longitude":-122.392343}],"country":"USA","state":"CA","city":"San Francisco","latitude":37.779868,"longitude":-122.392343},{"name":"Veeva","category_code":"software","number_of_employees":510,"founded_year":2007,"deadpooled_year":null,"description":"Cloud-based business solutions","total_money_raised":4000000,"offices":[{"description":"Corporate Headquarters","address1":"4637 Chabot Drive","address2":"Suite 210","zip_code":"94588","city":"Pleasanton","state_code":"CA","country_code":"USA","latitude":37.69249,"longitude":-121.900722},{"description":"Europe Headquarters","address1":"Avinguda Diagonal 420","address2":"","zip_code":"08037","city":"Barcelona","state_code":null,"country_code":"ESP","latitude":null,"longitude":null},{"description":"China Headquarters","address1":"Room 1707, 17F United Plaza","address2":"1498 Nan Jing Rd West","zip_code":"2000040","city":"Jing An District Shang Hai","state_code":null,"country_code":"CHN","latitude":null,"longitude":null},{"description":"Japan Headquarters","address1":"1-9 Gobancho 5F","address2":"","zip_code":"102-0076","city":"Chiyodaku, Tokyo","state_code":null,"country_code":"JPN","latitude":null,"longitude":null}],"country":"USA","state":"CA","city":"Pleasanton","latitude":37.69249,"longitude":-121.900722},{"name":"Taipan Publishing Group","category_code":"web","number_of_employees":100,"founded_year":2007,"deadpooled_year":null,"description":"Financial news","total_money_raised":0,"offices":[{"description":"Headquarters","address1":"16 West Madison Street","address2":"","zip_code":"21201","city":"Baltimore","state_code":"MD","country_code":"USA","latitude":39.298734,"longitude":-76.616747}],"country":"USA","state":"MD","city":"Baltimore","latitude":39.298734,"longitude":-76.616747},{"name":"Topsy Labs","category_code":"analytics","number_of_employees":45,"founded_year":2007,"deadpooled_year":null,"description":"Instant Social Insight","total_money_raised":35200000,"offices":[{"description":"Headquarters","address1":"140 Second St","address2":"6th Floor","zip_code":"94105","city":"San Francisco","state_code":"CA","country_code":"USA","latitude":37.775196,"longitude":-122.419204}],"country":"USA","state":"CA","city":"San Francisco","latitude":37.775196,"longitude":-122.419204},{"name":"Yoostar","category_code":"games_video","number_of_employees":40,"founded_year":2007,"deadpooled_year":null,"description":"Movie Karaoke","total_money_raised":0,"offices":[{"description":"Main Office","address1":"","address2":"","zip_code":"","city":"New York","state_code":"NY","country_code":"USA","latitude":40.756054,"longitude":-73.986951},{"description":"","address1":"","address2":"","zip_code":"","city":"Los Angeles","state_code":"CA","country_code":"USA","latitude":34.052187,"longitude":-118.243425}],"country":"USA","state":"NY","city":"New York","latitude":40.756054,"longitude":-73.986951},{"name":"The Resumator","category_code":"software","number_of_employees":40,"founded_year":2009,"deadpooled_year":null,"description":"SaaS Recruiting Software","total_money_raised":2980000,"offices":[{"description":"","address1":"","address2":"","zip_code":"","city":"Pittsburgh","state_code":"PA","country_code":"USA","latitude":40.438423,"longitude":-80.001933}],"country":"USA","state":"PA","city":"Pittsburgh","latitude":40.438423,"longitude":-80.001933},{"name":"Engagement Systems","category_code":"software","number_of_employees":80,"founded_year":2008,"deadpooled_year":null,"description":"CRM-Integrated Marketing Automation","total_money_raised":0,"offices":[{"description":"Engagement Systems","address1":"8300 NE Underground Dr.","address2":"Pillar 122","zip_code":"64161","city":"Kansas City","state_code":"MO","country_code":"USA","latitude":39.156427,"longitude":-94.483334}],"country":"USA","state":"MO","city":"Kansas City","latitude":39.156427,"longitude":-94.483334},{"name":"Glogster","category_code":"web","number_of_employees":35,"founded_year":2007,"deadpooled_year":null,"description":"Social network for fun expression","total_money_raised":0,"offices":[{"description":"GLOGSTER EC, INC. (Sales)","address1":"800 Boylston St.","address2":"","zip_code":"02119","city":"Boston","state_code":"MA","country_code":"USA","latitude":42.35892,"longitude":-71.05781},{"description":"GLOGSTER a.s. (HQ)","address1":"Vodickova 36","address2":"","zip_code":"11602","city":"Prague","state_code":null,"country_code":"CZE","latitude":50.0878114,"longitude":14.4204598}],"country":"USA","state":"MA","city":"Boston","latitude":42.35892,"longitude":-71.05781},{"name":"StyleCaster","category_code":"web","number_of_employees":60,"founded_year":2008,"deadpooled_year":null,"description":"Media and Ad-Tech for fashion & beauty","total_money_raised":5000000,"offices":[{"description":"","address1":"49 W 27th St Uppr A","address2":"","zip_code":"10001-6936","city":"New York City","state_code":"NY","country_code":"USA","latitude":40.7450497,"longitude":-73.9900984}],"country":"USA","state":"NY","city":"New York City","latitude":40.7450497,"longitude":-73.9900984},{"name":"FacebookLicious!","category_code":"games_video","number_of_employees":30,"founded_year":2007,"deadpooled_year":null,"description":"Facebook Application Developers","total_money_raised":0,"offices":[{"description":"Facebooklicious Office.","address1":"42 Paisley Street,","address2":"","zip_code":"19701","city":"Bear","state_code":"DE","country_code":"USA","latitude":39.612223,"longitude":-75.696706}],"country":"USA","state":"DE","city":"Bear","latitude":39.612223,"longitude":-75.696706},{"name":"Tiverias Apps","category_code":"software","number_of_employees":20,"founded_year":2009,"deadpooled_year":null,"description":"real-time and cloud apps","total_money_raised":0,"offices":[{"description":"Tiverias Apps LLC.","address1":"222 Third St, Suite 1320","address2":"","zip_code":"02142","city":"Cambridge","state_code":"MA","country_code":"USA","latitude":42.3672873,"longitude":-71.0814466}],"country":"USA","state":"MA","city":"Cambridge","latitude":42.3672873,"longitude":-71.0814466},{"name":"ALOT","category_code":"software","number_of_employees":50,"founded_year":2007,"deadpooled_year":null,"description":"Software and technology company","total_money_raised":0,"offices":[{"description":"","address1":"143 Varick Street","address2":"","zip_code":"10013","city":"New York","state_code":"NY","country_code":"USA","latitude":40.72616,"longitude":-74.006023}],"country":"USA","state":"NY","city":"New York","latitude":40.72616,"longitude":-74.006023}]